City_ID,City,Lat,Lng,Max Temp,Humidity,Cloudiness,Wind Speed,Country,Date
0,whitehorse,60.7161,-135.0538,-9.57,92,40,5.66,CA,1733770025
1,puerto natales,-51.7236,-72.4875,14.25,47,75,6.69,CL,1733770026
2,olonkinbyen,70.9221,-8.7187,-3.64,88,100,7.18,SJ,1733770027
3,oromocto,45.8351,-66.4792,-3.04,63,0,2.57,CA,1733770028
4,enewetak,11.3474,162.3373,27.82,79,23,8.17,MH,1733770029
5,fort mcmurray,56.7268,-111.381,-5.23,93,100,2.57,CA,1733770031
6,grytviken,-54.2811,-36.5092,2.79,67,26,4.22,GS,1733770032
7,adamstown,-25.066,-130.1015,22.77,75,25,7.91,PN,1733770033
8,albany,42.6001,-73.9662,1.97,90,100,1.8,US,1733770034
9,sur,22.5667,59.5289,22.74,46,4,2.73,OM,1733770035
10,muricay,7.8275,123.4782,25.24,92,67,0.74,PH,1733770036
11,kodiak,57.79,-152.4072,3.73,100,75,3.09,US,1733770037
12,mount gambier,-37.8333,140.7667,11.17,77,92,1.66,AU,1733770038
13,zapolyarnyy,69.4154,30.8136,-1.78,90,100,13.85,RU,1733770040
14,cobija,-11.0267,-68.7692,30.1,70,75,5.14,BO,1733770041
15,edinburgh of the seven seas,-37.0676,-12.3116,14.94,84,80,10.08,SH,1733770042
16,santa marta,11.2408,-74.199,33.03,61,20,2.68,CO,1733770043
17,yellowknife,62.456,-114.3525,-23.58,77,20,5.66,CA,1733769919
18,waitangi,-43.9535,-176.5597,16.01,98,100,0.45,NZ,1733770045
19,saint-francois,46.4154,3.9054,4.69,77,100,5.14,FR,1733770046
20,dunedin,-45.8742,170.5036,14.89,58,54,1.34,NZ,1733769792
21,hithadhoo,-0.6,73.0833,27.55,73,91,5.89,MV,1733770049
22,kingston,17.997,-76.7936,32.31,66,20,3.6,JM,1733770050
23,belmonte,-15.8631,-38.8828,27.91,68,3,5.72,BR,1733770051
24,abrud,46.2667,23.0667,2.23,100,100,0.82,RO,1733770052
25,kaihua,23.3687,104.28,10.68,96,100,2.85,CN,1733770053
26,karangampel,-6.4622,108.4519,26.69,83,100,2.69,ID,1733770054
27,ushuaia,-54.8,-68.3,13.81,44,40,4.12,AR,1733770055
28,puerto baquerizo moreno,-0.9,-89.6,24.55,78,75,6.69,EC,1733770057
29,gonabad,34.3529,58.6837,4.15,34,30,0.72,IR,1733770058
30,ribeira grande,38.5167,-28.7,19.22,72,40,8.94,PT,1733770059
31,alesund,62.4723,6.1549,5.08,76,35,8.75,NO,1733770060
32,juneau,58.3019,-134.4197,3.0,97,100,5.66,US,1733770062
33,palikir - national government center,6.9248,158.1611,28.2,78,100,9.6,FM,1733770063
34,nybro,56.7446,15.9071,3.45,75,100,4.26,SE,1733770065
35,nabire,-3.3667,135.4833,24.66,90,100,0.59,ID,1733770066
36,jamestown,42.097,-79.2353,6.8,100,100,2.57,US,1733770067
37,sept-iles,50.2001,-66.3821,-6.64,62,20,6.17,CA,1733770068
38,turpan,42.9333,89.1667,0.29,55,100,0.98,CN,1733770069
39,warrnambool,-38.3833,142.4833,13.2,74,100,3.03,AU,1733770070
40,poronaysk,49.2167,143.1167,-11.41,84,32,3.87,RU,1733770071
41,mount pearl,47.5166,-52.7813,2.96,86,75,11.32,CA,1733770072
42,badger,64.8,-147.5333,-1.07,80,75,3.09,US,1733770074
43,iskateley,67.6803,53.1512,-2.88,96,100,6.04,RU,1733770075
44,utrik,11.2278,169.8474,27.74,77,65,10.13,MH,1733770076
45,port mathurin,-19.6833,63.4167,24.93,79,100,6.91,MU,1733770077
46,hamilton,39.1834,-84.5333,13.14,86,100,4.12,US,1733770078
47,tiksi,71.6872,128.8694,-29.49,99,69,2.55,RU,1733770079
48,qaqortoq,60.7167,-46.0333,-5.34,86,100,2.4,GL,1733770081
49,ubinskoye,55.3068,79.6802,-22.5,99,70,2.9,RU,1733770082
50,port-aux-francais,-49.35,70.2167,3.58,80,92,12.77,TF,1733770083
51,west island,-12.1568,96.8225,25.99,94,75,9.26,CC,1733770084
52,codrington,-38.2667,141.9667,13.91,68,100,3.02,AU,1733770085
53,college,64.8569,-147.8028,-1.03,80,75,3.09,US,1733770086
54,port lincoln,-34.7333,135.8667,15.62,77,0,6.31,AU,1733770087
55,agogo,6.8,-1.0819,26.01,41,94,1.11,GH,1733770088
56,thompson,55.7435,-97.8558,-12.91,85,40,4.63,CA,1733770090
57,wailua homesteads,22.0669,-159.378,23.44,96,0,4.12,US,1733770091
58,hermanus,-34.4187,19.2345,18.78,80,100,0.92,ZA,1733770092
59,aykhal,66.0,111.5,-33.56,100,87,1.88,RU,1733770093
60,kapuskasing,49.4169,-82.4331,-8.95,67,100,8.75,CA,1733770094
61,ciudad melchor muzquiz,27.8833,-101.5167,27.93,15,0,6.3,MX,1733770095
62,blackmans bay,-43.0167,147.3167,12.07,85,100,0.89,AU,1733770096
63,helena valley southeast,46.6153,-111.9216,1.84,74,67,0.45,US,1733770098
64,fortuna,40.5982,-124.1573,10.55,87,0,3.09,US,1733770099
65,medina,24.4686,39.6142,24.24,20,0,2.06,SA,1733770100
66,ola,59.5833,151.2833,-13.74,79,98,5.34,RU,1733770101
67,gaspe,48.8334,-64.4819,-4.88,58,75,9.26,CA,1733770102
68,udachny,66.4167,112.4,-34.41,100,96,1.63,RU,1733770103
69,patong,7.8961,98.2966,26.08,81,100,1.61,TH,1733770104
70,stanley,54.868,-1.6985,5.85,79,20,3.09,GB,1733770105
71,papatowai,-46.5619,169.4708,13.54,56,100,5.53,NZ,1733770107
72,talnakh,69.4865,88.3972,-13.32,95,100,6.33,RU,1733770108
73,okha,53.5739,142.9478,-6.52,71,100,8.53,RU,1733770109
74,rio grande,-32.035,-52.0986,19.78,57,99,6.51,BR,1733770110
75,sorong,-0.8833,131.25,27.91,82,98,4.78,ID,1733770111
76,nyurba,63.2842,118.3319,-27.76,97,97,2.18,RU,1733770112
77,antsiranana,-12.2787,49.2917,25.86,79,4,5.52,MG,1733770113
78,santo antonio,-6.3106,-35.4789,30.47,47,85,8.63,BR,1733770115
79,weno,7.4515,151.8468,27.97,83,40,3.6,FM,1733770116
80,luderitz,-26.6481,15.1594,21.77,50,0,11.16,NA,1733770117
81,orsa,54.5153,30.4053,-1.25,94,100,2.88,BY,1733770118
82,avarua,-21.2078,-159.775,24.03,88,75,4.12,CK,1733770119
83,iqaluit,63.7506,-68.5145,-17.15,71,75,8.23,CA,1733770120
84,pacific grove,36.6177,-121.9166,18.57,64,0,4.47,US,1733770121
85,torre de moncorvo,41.1792,-7.0358,7.62,74,5,2.24,PT,1733770122
86,amal,59.051,12.7049,-0.97,73,6,1.75,SE,1733770124
87,anna regina,7.2644,-58.5077,27.23,78,32,3.58,GY,1733770125
88,brisas de zicatela,15.8369,-97.0419,29.29,74,0,2.57,MX,1733770126
89,muisne,0.6,-80.0333,26.06,72,70,3.73,EC,1733770128
90,khorugh,37.4897,71.553,-28.52,59,100,0.91,TJ,1733770129
91,nandurbar,21.3667,74.25,17.34,18,100,2.96,IN,1733770131
92,hadibu,12.65,54.0333,24.82,62,52,6.68,YE,1733770132
93,kavaratti,10.5669,72.642,27.6,74,56,3.75,IN,1733770133
94,bethel,41.3712,-73.414,8.05,83,100,3.09,US,1733770134
95,kailua-kona,19.6406,-155.9956,25.33,73,0,0.45,US,1733770135
96,carahue,-38.7,-73.1667,19.29,38,0,4.11,CL,1733770136
97,dudinka,69.4058,86.1778,-10.7,94,100,8.43,RU,1733770137
98,christchurch,-43.5333,172.6333,16.29,47,0,1.03,NZ,1733770071
99,hasaki,35.7333,140.8333,9.89,50,100,3.57,JP,1733770140
100,ugoofaaru,5.6667,73.0,26.67,79,97,1.93,MV,1733770141
101,klyuchi,52.2667,79.1667,-23.55,100,86,0.6,RU,1733770142
102,margaret river,-33.95,115.0667,12.25,86,0,5.45,AU,1733770143
103,saipan,15.1355,145.701,26.39,83,40,2.06,MP,1733770144
104,recani,31.2846,-4.2688,15.57,28,33,2.35,MA,1733770145
105,katabu,-4.9333,122.5167,25.12,91,100,3.04,ID,1733770148
106,saint-georges,12.0564,-61.7485,29.82,70,20,6.69,GD,1733770149
107,polyarnyy,69.1989,33.4478,0.64,90,100,13.17,RU,1733770150
108,sao felix do xingu,-6.6447,-51.995,33.44,41,100,1.12,BR,1733770151
109,nar'yan-mar,67.6713,53.087,-2.82,96,100,6.1,RU,1733770152
110,uturoa,-16.7333,-151.4333,26.86,77,39,8.95,PF,1733770153
111,longyearbyen,78.2186,15.6401,-3.09,74,75,3.6,SJ,1733770154
112,fale old settlement,-9.3852,-171.2468,28.14,69,50,3.61,TK,1733770155
113,cuatro cienegas de carranza,26.9833,-102.0833,25.49,23,4,4.62,MX,1733770157
114,jaisinghnagar,23.7,81.3833,12.39,53,12,1.54,IN,1733770158
115,afaahiti,-17.75,-149.2833,24.97,81,87,9.67,PF,1733770159
116,ikom,5.9667,8.7063,26.0,38,14,1.57,NG,1733770160
117,nishinoomote,30.7333,131.0,13.74,64,14,9.31,JP,1733770161
118,san carlos de bariloche,-41.1456,-71.3082,20.69,24,0,8.75,AR,1733770162
119,meadow lake,34.8014,-106.5436,12.69,24,0,6.48,US,1733770163
120,den burg,53.0542,4.7972,6.99,81,75,10.8,NL,1733770165
121,mogadishu,2.0371,45.3438,26.35,85,23,9.16,SO,1733770166
122,bredasdorp,-34.5322,20.0403,18.51,72,100,1.61,ZA,1733770167
123,kudymkar,59.0173,54.656,-5.93,95,100,3.07,RU,1733770168
124,aoulef,26.9667,1.0833,19.11,23,77,2.92,DZ,1733770169
125,puerto ayora,-0.7393,-90.3518,23.64,90,76,3.13,EC,1733770170
126,ust-nera,64.5667,143.2,-21.45,99,100,1.45,RU,1733770171
127,akureyri,65.6835,-18.0878,7.96,53,40,8.75,IS,1733770172
128,hawaiian paradise park,19.5933,-154.9731,22.71,88,75,2.57,US,1733770173
129,richlands,37.0932,-81.7937,8.78,94,100,3.58,US,1733770175
130,greenville,35.6127,-77.3663,13.97,83,100,3.6,US,1733770176
131,tadpatri,14.9167,78.0167,23.91,80,100,2.15,IN,1733770177
132,baiyin,36.5583,104.2081,-6.34,91,100,4.57,CN,1733770178
133,invercargill,-46.4,168.35,11.68,73,98,4.02,NZ,1733770179
134,quelimane,-17.8786,36.8883,27.97,78,40,4.12,MZ,1733770180
135,wrzesnia,52.3251,17.5652,1.7,89,76,6.48,PL,1733770181
136,vila franca do campo,37.7167,-25.4333,18.27,99,100,3.32,PT,1733770182
137,mermoz boabab,14.7065,-17.4758,25.88,61,97,3.09,SN,1733770184
138,chonchi,-42.6128,-73.8092,16.0,47,60,0.67,CL,1733770185
139,ilulissat,69.2167,-51.1,-2.99,93,75,3.09,GL,1733770186
140,port elizabeth,-33.918,25.5701,23.51,95,75,1.03,ZA,1733770187
141,tonota,-21.4833,27.4833,28.92,34,3,5.92,BW,1733770188
142,xai-xai,-25.0519,33.6442,25.75,79,100,5.68,MZ,1733770189
143,hobyo,5.3505,48.5268,25.9,72,99,8.92,SO,1733770190
144,abepura,-2.6333,140.5833,24.45,100,40,0.51,ID,1733770191
145,wellington,-41.2866,174.7756,15.81,67,0,3.6,NZ,1733770146
146,bardai,11.65,7.2333,22.28,26,2,4.28,NG,1733770194
147,hanceville,34.0607,-86.7675,19.95,97,100,2.56,US,1733770195
148,vadso,70.0744,29.7487,3.09,81,40,14.4,NO,1733770196
149,ancud,-41.8697,-73.8203,13.28,59,10,4.76,CL,1733770197
150,hilo,19.7297,-155.09,22.83,88,75,2.57,US,1733770021
151,kalodzishchy,53.944,27.7823,-2.27,100,100,4.0,BY,1733770199
152,vilyuchinsk,52.9306,158.4028,-4.85,94,97,2.98,RU,1733770200
153,rapid city,44.0805,-103.231,0.86,60,100,9.26,US,1733770201
154,feijo,-8.1642,-70.3536,33.25,45,100,1.23,BR,1733770203
155,touros,-5.1989,-35.4608,27.53,64,100,7.09,BR,1733770204
156,tazovsky,67.4667,78.7,-10.54,93,100,7.23,RU,1733770205
157,katsuren-haebaru,26.3369,127.8719,18.01,77,100,2.06,JP,1733770206
158,lebu,-37.6167,-73.65,14.54,64,0,7.24,CL,1733770207
159,vorkuta,67.5,64.0,-9.32,95,100,6.18,RU,1733770208
160,krasnogorskoye,52.2953,86.1979,-25.97,100,100,0.66,RU,1733770209
161,tura,25.5198,90.2201,14.13,69,62,1.63,IN,1733770210
162,susuman,62.7833,148.1667,-27.91,100,100,0.34,RU,1733770213
163,georgetown,5.4112,100.3354,25.96,87,40,2.06,MY,1733770214
164,flin flon,54.7682,-101.865,-9.09,79,100,3.09,CA,1733770215
165,rabaul,-4.1967,152.1721,26.59,81,98,0.99,PG,1733770216
166,paphos,34.7667,32.4167,14.88,88,100,3.09,CY,1733770035
167,buka,40.8108,69.1986,-4.6,61,0,2.39,UZ,1733770218
168,queenstown,-31.8976,26.8753,19.68,86,47,1.99,ZA,1733770220
169,kovdor,67.5662,30.4758,-2.84,88,100,6.64,RU,1733770221
170,brak,27.5496,14.2714,15.19,25,100,1.7,LY,1733770222
171,izucar de matamoros,18.6,-98.4667,28.0,21,3,2.15,MX,1733770223
172,thal,35.4791,72.2439,-11.0,56,6,3.85,PK,1733770224
173,port alfred,-33.5906,26.891,23.43,95,56,2.16,ZA,1733770225
174,kutztown,40.5173,-75.7774,6.48,82,100,0.89,US,1733770226
175,arraial do cabo,-22.9661,-42.0278,28.98,83,40,4.63,BR,1733770227
176,valparaiso,-33.0393,-71.6273,20.8,50,0,7.2,CL,1733770229
177,minbu,20.1833,94.8833,21.18,83,62,1.29,MM,1733770230
178,bikenibeu village,1.3673,173.1241,25.98,94,75,3.09,KI,1733770231
179,zaigrayevo,51.8336,108.2703,-14.6,79,70,5.74,RU,1733770232
180,aasiaat,68.7098,-52.8699,-6.38,87,100,5.72,GL,1733770233
181,beledweyne,4.7358,45.2036,28.69,24,15,5.45,SO,1733770234
182,neijiang,29.5835,105.0622,8.05,83,99,1.82,CN,1733770235
183,sangkhla buri,15.1555,98.4536,19.73,84,10,0.81,TH,1733770236
184,anadyr,64.75,177.4833,-16.72,84,75,6.0,RU,1733770151
185,pelabuhan klang,3.0,101.4,25.11,93,100,3.76,MY,1733770239
186,ndago,-4.6,34.35,19.04,83,83,2.14,TZ,1733770240
187,karratha,-20.7377,116.8463,27.72,70,96,4.48,AU,1733770242
188,haiku-pauwela,20.9219,-156.3051,24.03,74,20,7.6,US,1733770243
189,coquimbo,-29.9533,-71.3436,18.85,59,0,6.17,CL,1733770244
190,castillos,-34.1667,-53.8333,20.02,48,32,4.43,UY,1733770245
191,tanumah,27.1,44.1333,15.91,39,0,4.85,SA,1733770247
192,prince george,53.9166,-122.753,-3.17,99,100,3.6,CA,1733770248
193,sumbawa besar,-8.5,117.4333,24.24,96,100,0.72,ID,1733770249
194,waddan,29.1614,16.139,17.56,24,100,3.44,LY,1733770250
195,tolanaro,-25.0319,46.9987,25.04,83,75,4.12,MG,1733770251
196,la palma,33.8464,-118.0467,17.07,69,20,2.57,US,1733770252
197,urucara,-2.5364,-57.76,32.88,48,98,0.8,BR,1733770253
198,great falls,47.5002,-111.3008,2.87,68,100,5.66,US,1733770256
199,ouesso,1.6136,16.0517,26.94,46,49,1.3,CG,1733770257
200,kalix,65.853,23.1565,1.0,76,100,5.03,SE,1733770258
201,nurota,40.5614,65.6886,-5.01,67,100,3.91,UZ,1733770260
202,honcho,35.6931,139.9833,8.05,73,97,4.7,JP,1733770261
203,duyun,26.2667,107.5167,5.87,98,100,0.92,CN,1733770262
204,upata,8.0086,-62.3989,33.43,36,65,4.46,VE,1733770264
205,okhotsk,59.3833,143.3,-17.86,78,98,8.02,RU,1733770265
206,tamanrasset,22.785,5.5228,14.95,10,0,2.06,DZ,1733770266
207,kotli loharan,32.5883,74.4932,10.94,67,4,0.0,PK,1733770267
208,weligama,5.9667,80.4167,24.61,89,7,2.08,LK,1733770268
209,balikpapan,-1.2675,116.8289,25.55,89,20,0.51,ID,1733770269
210,midvagur,62.0511,-7.1939,8.46,93,100,7.2,FO,1733770270
211,kidal,18.4411,1.4078,19.68,10,6,1.55,ML,1733770271
212,asadabad,34.7824,48.1185,6.8,71,25,3.15,IR,1733770273
213,new norfolk,-42.7826,147.0587,12.18,93,100,1.09,AU,1733770274
214,camiri,-20.05,-63.5167,21.88,83,100,0.0,BO,1733770275
215,gap,44.6667,6.0,-5.65,82,100,2.0,FR,1733770276
216,labytnangi,66.6572,66.4183,-8.89,88,100,4.76,RU,1733770277
217,egilsstadir,65.2653,-14.3948,6.95,76,0,6.17,IS,1733770278
218,islamkot,24.6997,70.177,15.09,15,5,3.42,PK,1733770279
219,slave lake,55.2834,-114.769,-2.01,80,100,7.2,CA,1733770202
220,east london,-33.0153,27.9116,23.52,94,0,0.0,ZA,1733770282
221,paide,58.8856,25.5572,-0.5,84,100,1.39,EE,1733770283
222,muniz freire,-20.4642,-41.4131,27.53,72,81,2.26,BR,1733770284
223,kangding,30.0513,101.9603,0.29,64,29,1.17,CN,1733770285
224,orikhiv,47.5673,35.7858,4.46,90,18,6.09,UA,1733770286
225,qamdo,31.1667,97.2333,-6.93,41,2,1.96,CN,1733770287
226,galle,6.0367,80.217,25.65,83,37,1.88,LK,1733770288
227,nizao,18.25,-70.2,27.98,68,6,7.22,DO,1733770289
228,san patricio,28.017,-97.5169,18.97,50,1,3.72,US,1733770292
229,lorengau,-2.0226,147.2712,27.28,77,97,2.08,PG,1733770294
230,nuku'alofa,-21.1333,-175.2,25.19,94,75,3.6,TO,1733770295
231,mbanza kongo,-6.267,14.2401,21.97,94,100,1.41,AO,1733770296
232,kalmunai,7.4167,81.8167,24.51,86,100,3.7,LK,1733770297
233,tebingtinggi,3.3285,99.1625,23.56,97,100,2.04,ID,1733770299
234,santa isabel,-23.3156,-46.2214,26.61,80,100,1.03,BR,1733770300
235,corovode,40.5042,20.2272,6.59,90,100,3.65,AL,1733770301
236,finspang,58.7058,15.7674,-5.14,97,25,0.9,SE,1733770302
237,shani,10.2162,12.062,27.18,28,99,3.03,NG,1733770303
238,ca mau,9.1769,105.15,23.7,87,78,1.51,VN,1733770304
239,isafjordur,66.0755,-23.124,0.73,73,12,14.66,IS,1733770305
240,kristiansund,63.1115,7.732,2.36,80,0,1.54,NO,1733770306
241,andergrove,-21.0833,149.1833,24.66,77,12,2.33,AU,1733770308
242,st. john's,47.5649,-52.7093,3.42,85,75,11.32,CA,1733770256
243,porto novo,6.4965,2.6036,26.74,69,46,2.99,BJ,1733770311
244,yelovo,57.0538,54.9207,-4.29,95,100,6.13,RU,1733770312
245,kargasok,59.0556,80.8572,-13.99,77,100,6.73,RU,1733770313
246,bilibino,68.0546,166.4372,-29.97,96,75,0.35,RU,1733770294
247,mersa matruh,31.3525,27.2453,17.11,42,0,0.0,EG,1733770317
248,cromwell,41.5951,-72.6454,10.04,75,100,2.06,US,1733770318
249,kaa-khem,51.6833,94.7333,-19.0,91,78,1.88,RU,1733770319
250,tessaoua,13.7574,7.9874,23.81,21,1,4.13,NE,1733770320
251,shimoda,34.6667,138.95,9.51,80,100,3.07,JP,1733770321
252,qandala,11.472,49.8728,25.11,74,100,4.19,SO,1733770322
253,rheinsberg,53.0997,12.8989,4.72,84,100,5.64,DE,1733770323
254,sosnogorsk,63.6023,53.8817,-7.98,94,100,3.19,RU,1733770324
255,tommot,58.9564,126.2925,-19.48,100,100,0.84,RU,1733770326
256,broken hill,-31.95,141.4333,19.72,39,0,3.29,AU,1733770327
257,labrador city,52.9463,-66.9114,-13.23,68,40,3.6,CA,1733770328
258,quellon,-43.1167,-73.6167,12.97,60,76,3.79,CL,1733770329
259,kadisehri,39.9957,35.7919,5.3,81,100,2.64,TR,1733770330
260,lompoc,34.6391,-120.4579,17.05,70,40,1.34,US,1733770331
261,yarmouth,41.7057,-70.2286,9.49,73,0,2.06,US,1733770332
262,dalandzadgad,43.5708,104.425,-9.31,64,84,3.76,MN,1733770333
263,agapovka,53.2973,59.1348,-5.44,71,100,4.23,RU,1733770334
264,flying fish cove,-10.4217,105.6791,24.82,94,20,3.6,CX,1733770336
265,poli,-3.3333,36.8,14.43,100,75,4.12,TZ,1733770337
266,esbjerg,55.4667,8.45,4.05,82,75,7.72,DK,1733770338
267,constantia,44.1833,28.65,7.61,82,6,4.82,RO,1733770339
268,le krib,36.328,9.1361,6.95,75,3,1.7,TN,1733770340
269,negara,-8.3151,114.6025,25.55,88,100,2.53,ID,1733770341
270,'ain benian,36.8028,2.9219,11.03,54,77,10.14,DZ,1733770342
271,nuuk,64.1835,-51.7216,-1.66,69,40,9.26,GL,1733770343
272,terenozek,45.05,64.9833,-7.81,84,7,3.98,KZ,1733770344
273,kuqa,41.7278,82.9364,-4.02,97,100,2.7,CN,1733770346
274,vilhena,-12.7406,-60.1458,29.12,65,40,3.6,BR,1733770347
275,pisco,-13.7,-76.2167,24.03,60,0,5.14,PE,1733770348
276,barcelos,41.5388,-8.6151,8.05,83,0,2.68,PT,1733770349
277,tanout,14.9709,8.8879,22.37,19,2,5.09,NE,1733770350
278,tshabong,-26.05,22.45,31.56,17,43,4.17,BW,1733770351
279,merizo village,13.2658,144.6691,25.55,87,6,6.54,GU,1733770352
280,kerikeri,-35.2268,173.9474,19.95,93,100,2.06,NZ,1733770213
281,fada,7.25,4.0667,25.44,44,100,1.7,NG,1733770355
282,cestos city,5.46,-9.5828,26.88,74,98,3.37,LR,1733770356
283,idri,27.5,13.2667,14.43,18,100,1.07,LY,1733770357
284,vernon,50.2581,-119.2691,2.47,86,11,0.89,CA,1733770158
285,el hadjira,32.6134,5.5126,13.25,35,0,2.8,DZ,1733770359
286,ramadi,33.4226,43.3058,14.9,50,0,4.74,IQ,1733770360
287,vorgashor,67.5833,63.95,-9.44,95,100,6.14,RU,1733770361
288,safotu,-13.4513,-172.4018,26.65,79,100,2.01,WS,1733770362
289,korsakov,46.6328,142.7813,-10.09,64,21,9.32,RU,1733770363
290,aral,40.5156,81.2636,-5.18,98,55,2.43,CN,1733770365
291,gusev,54.5922,22.1997,2.19,87,100,6.15,RU,1733770366
292,punta arenas,-53.15,-70.9167,14.06,54,75,10.29,CL,1733770367
293,burutu,5.3509,5.5076,27.2,70,98,3.37,NG,1733770368
294,lethem,3.3803,-59.7968,30.03,74,75,6.17,GY,1733770369
295,aleksandrovsk-sakhalinskiy,50.8975,142.1561,-8.4,77,100,6.43,RU,1733770370
296,dawson creek,55.7666,-120.2362,-8.2,93,0,3.09,CA,1733770371
297,miandrivazo,-19.5167,45.4667,29.62,65,100,1.36,MG,1733770372
298,cole harbour,44.6724,-63.4751,2.74,68,20,4.63,CA,1733770374
299,linqiong,30.4159,103.4609,5.65,89,99,0.76,CN,1733770375
300,puerto madero,14.7208,-92.4215,27.83,68,0,2.02,MX,1733770376
301,adam,22.3756,57.5233,20.51,38,4,1.94,OM,1733770377
302,kale,50.9581,1.8521,7.98,77,100,13.58,FR,1733770378
303,jaffa,32.0504,34.7522,17.27,67,0,0.51,IL,1733770379
304,nova sintra,14.8667,-24.7167,25.08,72,0,5.83,CV,1733770380
305,acarau,-2.8856,-40.12,29.1,68,80,7.73,BR,1733770381
306,santa terezinha,-29.9002,-50.0904,18.7,87,100,5.91,BR,1733770383
307,gerash,27.6652,54.1371,14.08,52,97,2.39,IR,1733770384
308,eenhana,-17.4667,16.3333,29.24,30,99,1.44,NA,1733770385
309,atafu village,-8.5421,-172.5159,27.99,73,100,3.29,TK,1733770386
310,shenjiamen,29.9576,122.298,12.17,68,100,2.65,CN,1733770387
311,chernyshevskiy,63.0128,112.4714,-30.66,100,83,1.6,RU,1733770388
312,bodo,67.28,14.405,7.1,96,100,13.89,NO,1733770389
313,kattivakkam,13.2167,80.3167,27.2,96,100,3.95,IN,1733770390
314,pitimbu,-7.4706,-34.8086,27.44,64,2,4.97,BR,1733770391
315,malango,-2.9627,119.9001,19.94,94,100,1.4,ID,1733770393
316,verkhnevilyuysk,63.4453,120.3167,-27.78,98,100,1.33,RU,1733770394
317,alice springs,-23.7,133.8833,22.75,100,100,1.54,AU,1733770395
318,desarmes,18.9917,-72.3889,29.84,63,15,2.28,HT,1733770396
319,fisterra,42.9049,-9.2629,12.56,75,34,7.72,ES,1733770397
320,kotlas,61.2611,46.6556,-8.25,97,77,1.89,RU,1733770398
321,arteche,12.2645,125.4048,25.81,92,100,2.25,PH,1733770399
322,nemuro,43.3236,145.575,-2.13,70,35,10.45,JP,1733770400
323,paracuru,-3.41,-39.0306,28.48,66,98,6.7,BR,1733770402
324,cannonvale,-20.2833,148.7,24.66,77,20,2.08,AU,1733770403
325,galesong,-5.3166,119.3661,26.53,88,100,5.4,ID,1733770404
326,maun,-19.9833,23.4167,30.98,33,0,2.57,BW,1733770405
327,imperatriz,-5.5264,-47.4917,33.03,52,20,2.06,BR,1733770406
328,nizhnesortymskiy,62.4397,71.7603,-12.14,94,99,7.26,RU,1733770407
329,chibougamau,49.9168,-74.3659,-13.21,85,0,2.57,CA,1733770408
330,uruzgan,32.8333,66.0,4.0,26,100,1.06,AF,1733770409
331,charters towers,-20.1,146.2667,22.68,85,1,3.95,AU,1733770410
332,la passe,45.5549,-0.8967,6.17,74,100,6.69,FR,1733770412
333,crikvenica,45.1772,14.6928,8.11,49,75,6.69,HR,1733770413
334,timaru,-44.4,171.25,13.02,44,0,2.16,NZ,1733770414
335,tarana,23.3333,76.0333,12.27,29,0,2.52,IN,1733770415
336,peterhead,57.5058,-1.7981,5.66,74,19,1.6,GB,1733770416
337,colby,39.3958,-101.0524,5.56,44,100,8.49,US,1733770331
338,moratuwa,6.773,79.8816,25.19,83,45,4.14,LK,1733770418
339,misratah,32.3754,15.0925,17.7,46,100,4.75,LY,1733770419
340,manokwari,-0.8667,134.0833,25.47,83,66,0.83,ID,1733770421
341,baki,-7.6128,110.7839,25.47,87,100,4.46,ID,1733770422
342,port augusta,-32.5,137.7667,19.78,59,0,4.33,AU,1733770425
343,punta del este,-34.9667,-54.95,24.06,77,20,6.26,UY,1733770426
344,namtsy,62.7161,129.6658,-26.16,99,100,1.38,RU,1733770427
345,rabo de peixe,37.8,-25.5833,17.77,99,75,3.6,PT,1733770428
346,carutapera,-1.195,-46.02,29.1,66,45,4.27,BR,1733770430
347,la'ie,21.6477,-157.9253,25.06,77,10,1.79,US,1733770431
348,petropavlovsk-kamchatsky,53.0452,158.6483,-5.67,80,75,1.0,RU,1733770432
349,copala,16.65,-98.9833,28.96,60,28,3.37,MX,1733770433
350,mananjary,-21.2167,48.3333,25.03,79,10,1.22,MG,1733770434
351,barra de santo antonio,-9.4047,-35.5072,27.46,64,0,4.7,BR,1733770435
352,beberibe,-4.1797,-38.1306,28.21,66,71,5.5,BR,1733770436
353,remire-montjoly,4.9167,-52.2667,30.02,74,75,6.17,GF,1733770437
354,maba,24.6841,113.5984,10.51,78,3,0.35,CN,1733770439
355,altinekin,38.3078,32.8686,8.93,75,100,1.25,TR,1733770440
356,grantsville,40.5999,-112.4644,1.98,63,100,5.36,US,1733770441
357,nelson bay,-32.7167,152.15,21.72,98,93,1.79,AU,1733770442
358,raahe,64.6833,24.4833,1.48,90,100,11.44,FI,1733770443
359,bereznik,62.8551,42.7072,-4.41,95,87,2.64,RU,1733770444
360,arhribs,36.7936,4.3116,7.76,82,100,3.35,DZ,1733770445
361,cangzhou,38.3167,116.8667,-0.92,32,98,1.31,CN,1733770446
362,castro,-24.7911,-50.0119,19.35,97,100,1.51,BR,1733770447
363,nechi,8.0942,-74.7757,33.14,54,17,0.99,CO,1733770449
364,holualoa,19.6228,-155.9522,23.26,69,0,0.0,US,1733770450
365,carnarvon,-24.8667,113.6333,23.02,87,100,5.3,AU,1733770451
366,viedma,-40.8135,-62.9967,20.65,49,0,9.18,AR,1733770452
367,harriman,35.934,-84.5524,12.44,98,100,3.6,US,1733770453
368,santa elena de uairen,4.6167,-61.1333,26.3,53,99,1.72,VE,1733770454
369,ponta delgada,37.7333,-25.6667,18.44,63,75,3.6,PT,1733770455
370,yen bai,21.7,104.8667,16.93,77,99,0.32,VN,1733770457
371,mugia,43.1041,-9.2179,12.3,77,71,8.14,ES,1733770458
372,khandyga,62.6667,135.6,-35.09,100,83,1.08,RU,1733770459
373,myrina,39.8797,25.0742,15.58,88,20,3.6,GR,1733770460
374,yamada,39.4667,141.95,-0.39,78,6,1.76,JP,1733770461
375,pandan,14.0453,124.1694,26.2,91,100,7.76,PH,1733770462
376,galeras,9.161,-75.0481,31.9,53,23,1.97,CO,1733770463
377,mahebourg,-20.4081,57.7,27.16,74,75,1.54,MU,1733770465
378,itoman,26.1247,127.6694,18.01,68,25,3.09,JP,1733770466
379,alvarado,18.7667,-95.7667,24.87,74,98,3.07,MX,1733770467
380,baidoa,3.1138,43.6498,24.93,60,34,5.95,SO,1733770469
381,sinabang,2.4803,96.3801,26.44,84,100,2.65,ID,1733770470
382,san fernando de apure,7.8878,-67.4724,34.94,35,3,3.93,VE,1733770472
383,shalya,57.2471,58.7298,-7.51,93,100,4.64,RU,1733770473
384,dhidhdhoo,6.8833,73.1,27.5,73,33,1.03,MV,1733770474
385,mushie,-3.0167,16.9,24.67,74,11,0.68,CD,1733770475
386,mirpur sakro,24.5474,67.6277,18.02,10,0,3.74,PK,1733770477
387,xilin hot,43.9667,116.0333,-13.14,96,3,0.28,CN,1733770478
388,akom ii,2.7833,10.5667,22.83,93,98,1.35,CM,1733770480
389,taoudenni,22.6783,-3.9836,20.81,14,75,1.41,ML,1733770481
390,port douglas,-16.4833,145.4667,24.53,86,96,2.26,AU,1733770482
391,island harbour,50.724,-1.2758,8.34,65,100,4.47,GB,1733770483
392,kondratovo,57.9804,56.1066,-6.84,86,75,5.0,RU,1733770484
393,guatire,10.4762,-66.5427,29.66,55,40,2.69,VE,1733770485
394,sao benedito do rio preto,-3.3336,-43.5283,30.6,55,98,0.42,BR,1733770486
395,sidi bel abbes,35.1899,-0.6309,8.24,67,0,3.07,DZ,1733770488
396,dellys,36.9172,3.9131,11.61,68,100,6.75,DZ,1733770489
397,jian'ou,27.0469,118.3253,11.92,83,77,0.5,CN,1733770490
398,bowen,-20.0167,148.2333,25.19,74,7,3.22,AU,1733770491
399,tadine,-21.55,167.8833,24.2,86,5,3.41,NC,1733770492
400,i-n-salah,27.1935,2.4607,18.63,23,26,2.59,DZ,1733770493
401,tsiombe,-25.3,45.4833,23.26,72,0,6.81,MG,1733770494
402,namsos,64.4662,11.4957,4.95,81,75,7.72,NO,1733770495
403,taulaga,-11.0553,-171.0883,27.23,76,92,3.57,AS,1733770497
404,nuea khlong,8.0714,98.9993,25.08,100,0,1.54,TH,1733770498
405,gebeit,21.0667,36.3167,18.46,61,0,2.59,SD,1733770499
406,itamaraca,-7.7478,-34.8256,27.6,63,1,4.16,BR,1733770500
407,salalah,17.0151,54.0924,26.05,61,20,1.54,OM,1733770501
408,buala,-8.145,159.5921,26.95,82,49,2.38,SB,1733770502
409,sihanoukville,10.6093,103.5296,24.97,78,20,1.03,KH,1733770503
410,luwero,0.8492,32.4731,18.71,79,21,1.6,UG,1733770505
411,damara,4.9608,18.7035,29.12,32,88,1.84,CF,1733770506
412,guatrache,-37.6678,-63.5302,32.23,10,19,8.88,AR,1733770507
413,kursenai,55.985,22.9189,-1.97,92,7,4.01,LT,1733770508
414,cockburn town,21.4612,-71.1419,26.34,78,14,10.52,TC,1733770509
415,ifakara,-8.1333,36.6833,22.28,97,100,2.22,TZ,1733770510
416,cabedelo,-6.9811,-34.8339,30.37,64,7,5.84,BR,1733770511
417,shahdad kot,27.8477,67.9055,14.73,14,30,1.66,PK,1733770512
418,bull savanna,17.8868,-77.5902,27.29,66,55,2.9,JM,1733770514
419,westport,41.1415,-73.3579,9.86,83,100,6.17,US,1733770515
420,as sulayyil,20.4607,45.5779,20.05,32,99,2.67,SA,1733770516
421,borogontsy,62.6683,131.1683,-27.42,98,100,1.96,RU,1733770517
422,bonthe,7.5264,-12.505,26.45,70,99,3.32,SL,1733770518
423,chongwe,-15.3292,28.682,22.29,61,1,1.57,ZM,1733770519
424,moose jaw,50.4001,-105.5344,-3.85,93,100,5.66,CA,1733770520
425,csenger,47.8358,22.681,5.03,90,100,1.92,HU,1733770522
426,williams lake,52.1415,-122.1445,-3.24,97,40,2.06,CA,1733770312
427,srinagar,34.0833,74.8167,-0.01,33,14,1.14,IN,1733770524
428,atar,20.5169,-13.0499,22.46,11,100,2.25,MR,1733770525
429,brookings,44.3114,-96.7984,-1.57,81,100,11.32,US,1733770526
430,urangan,-25.3,152.9,25.35,72,34,3.52,AU,1733770527
431,festus,38.2206,-90.396,13.18,76,100,1.79,US,1733770530
432,sinop,41.7711,34.8709,10.29,78,79,6.38,TR,1733770531
433,sao vicente,-23.9631,-46.3919,22.98,35,100,2.24,BR,1733770532
434,jackson,42.4165,-122.8345,0.93,86,100,0.0,US,1733770533
435,crane,31.3974,-102.3501,20.9,18,1,9.67,US,1733770534
436,piacabucu,-10.4056,-36.4344,28.16,59,0,5.24,BR,1733770535
437,ilhabela,-23.7781,-45.3581,24.52,97,100,1.48,BR,1733770536
438,san luis,-33.295,-66.3356,28.25,26,0,1.98,AR,1733770537
439,vanimo,-2.6741,141.3028,25.63,89,100,1.48,PG,1733770539
440,tenno,39.9,139.9667,6.76,57,100,8.12,JP,1733770540
441,safi,32.1667,-8.8333,12.35,65,43,8.96,MA,1733770541
442,longboat key,27.4125,-82.659,26.18,59,0,5.66,US,1733770542
443,divnogorsk,55.9594,92.3619,-19.73,98,89,2.13,RU,1733770543
444,kizel,59.0471,57.6477,-7.09,94,100,0.89,RU,1733770544
445,erenhot,43.6475,111.9767,-7.1,68,6,2.49,CN,1733770545
446,port saint john's,-31.6229,29.5448,24.2,95,15,2.41,ZA,1733770546
447,kapit,2.0167,112.9333,23.52,100,100,0.16,MY,1733770548
448,lerwick,60.1545,-1.1494,5.99,79,100,5.1,GB,1733770549
449,mahibadhoo,3.7833,72.9667,27.73,69,91,2.05,MV,1733770550
450,howrah,22.5892,88.3103,18.0,82,40,0.0,IN,1733770551
451,papao,-17.75,-149.55,26.82,80,52,10.1,PF,1733770552
452,la libertad,-2.2333,-80.9,26.81,74,40,4.63,EC,1733770553
453,kone,-21.0595,164.8658,24.64,80,0,1.12,NC,1733770554
454,boonville,38.9736,-92.7432,9.79,87,75,0.0,US,1733770555
455,bismarck,46.8083,-100.7837,-2.09,78,100,9.26,US,1733770260
456,saint-pierre,-21.3393,55.4781,23.82,69,0,2.06,RE,1733770558
457,kepno,51.2784,17.9891,2.13,89,100,6.03,PL,1733770559
458,saint-mandrier-sur-mer,43.078,5.929,9.49,82,100,2.57,FR,1733770560
459,basco,20.4487,121.9702,24.51,70,95,11.4,PH,1733770561
460,nouadhibou,20.931,-17.0347,22.99,60,100,4.12,MR,1733770562
461,jiazi,22.8779,116.067,17.77,78,87,7.87,CN,1733770563
462,chabahar,25.2919,60.643,22.75,51,0,3.52,IR,1733770564
463,yuzhno-kurilsk,44.0306,145.8556,-1.44,59,99,12.2,RU,1733770567
464,ribeira brava,32.65,-17.0667,18.35,54,100,3.5,PT,1733770568
465,xuddur,4.1213,43.8894,27.12,37,76,4.43,SO,1733770569
466,korla,41.7597,86.1469,-2.64,95,100,2.23,CN,1733770570
467,belyy yar,53.6039,91.3903,-23.06,84,0,0.0,RU,1733770571
468,radviliskis,55.8167,23.5333,-1.97,100,100,5.14,LT,1733770574
469,fu'an,27.0892,119.6453,12.15,83,87,0.69,CN,1733770575
470,laguna,38.421,-121.4238,12.03,64,0,0.0,US,1733770576
471,ad darb,17.7229,42.2526,28.23,63,60,1.47,SA,1733770577
472,sisimiut,66.9395,-53.6735,-4.52,76,100,9.74,GL,1733770578
473,dakhla,23.6848,-15.958,20.01,83,99,7.72,EH,1733770579
474,es castell,39.8795,4.2854,7.38,93,20,1.54,ES,1733770580
475,rurrenabaque,-14.4413,-67.5278,30.94,74,75,4.12,BO,1733770581
476,hotan,37.0997,79.9269,-2.39,47,43,1.76,CN,1733770583
477,najran,17.4924,44.1277,13.89,40,39,0.95,SA,1733770584
478,lihue,21.9789,-159.3672,23.77,83,0,4.12,US,1733770585
479,ternate,0.8,127.4,26.86,81,92,2.47,ID,1733770586
480,knysna,-34.0363,23.0471,20.06,85,100,2.49,ZA,1733770587
481,axim,4.8699,-2.2405,26.67,79,100,2.68,GH,1733770588
482,newman,37.3138,-121.0208,13.36,36,5,3.36,US,1733770589
483,pestovo,58.5938,35.8024,-2.75,92,100,1.95,RU,1733770590
484,mocajuba,-2.5842,-49.5072,32.04,50,71,1.39,BR,1733770592
485,el bauga,18.262,33.9081,25.3,36,0,5.22,SD,1733770593
486,kapa'a,22.0752,-159.319,24.18,96,0,4.12,US,1733770360
487,canete,-37.8,-73.4,15.55,58,0,4.32,CL,1733770595
488,callao,-12.0667,-77.15,22.16,68,0,4.63,PE,1733770596
489,port-vila,-17.7338,168.3219,24.78,94,40,0.51,VU,1733770597
490,new river,33.9159,-112.136,19.53,27,10,2.37,US,1733770598
491,saudarkrokur,65.7461,-19.6394,2.84,77,68,10.81,IS,1733770599
492,sinjai,-5.1241,120.253,25.04,84,100,3.21,ID,1733770601
493,magadan,59.5667,150.8,-11.66,76,91,4.68,RU,1733770602
494,seven pagodas,12.6264,80.1722,26.08,81,100,4.08,IN,1733770603
495,tvoroyri,61.5556,-6.8111,8.7,84,58,13.31,FO,1733770604
496,zaozersk,69.4005,32.4476,-0.25,86,100,15.03,RU,1733770605
497,castel di sangro,41.7737,14.1035,2.54,93,14,2.09,IT,1733770606
498,cabo san lucas,22.8909,-109.9124,26.53,50,95,3.13,MX,1733770607
499,ulsteinvik,62.3432,5.8487,5.07,79,98,0.89,NO,1733770608
500,nkove,-7.95,30.85,23.5,77,6,1.4,TZ,1733770609
501,arish,31.1316,33.7984,15.1,72,0,0.0,EG,1733770611
502,krupki,54.3178,29.1358,-0.67,88,89,3.17,BY,1733770612
503,yeppoon,-23.1333,150.7333,24.28,78,100,2.92,AU,1733770613
504,arti,56.4234,58.5328,-7.06,94,100,5.95,RU,1733770614
505,kez,57.8979,53.7152,-4.76,96,100,3.24,RU,1733770615
506,khenifra,32.9333,-5.6667,8.37,58,100,0.88,MA,1733770616
507,winkler,49.1817,-97.941,-9.88,79,100,6.69,CA,1733770617
508,al-hamdaniya,36.2715,43.3737,13.46,45,3,2.22,IQ,1733770618
509,colipapa,9.4726,122.5616,27.36,81,100,4.15,PH,1733770620
510,altagracia de orituco,9.8601,-66.3814,33.22,34,96,3.43,VE,1733770621
511,freetown,8.484,-13.2299,26.45,65,100,3.27,SL,1733770622
512,mizdah,31.4451,12.9801,13.32,49,86,3.25,LY,1733770623
513,kolonia town,6.964,158.206,28.87,77,100,9.72,FM,1733770624
514,mwinilunga,-11.7358,24.4293,17.97,93,27,2.51,ZM,1733770625
515,acapulco de juarez,16.8634,-99.8901,26.55,63,60,3.44,MX,1733770528
516,quepos,9.4236,-84.1652,28.04,75,14,2.65,CR,1733770627
517,keflavik,64.0049,-22.5624,4.24,70,75,12.35,IS,1733770629
518,tataouine,32.9297,10.4518,10.39,44,0,3.56,TN,1733770630
519,alofi,-19.0595,-169.9187,25.54,85,2,8.55,NU,1733770631
520,kayangel,8.0823,134.7173,28.38,79,60,6.26,PW,1733770632
521,san luis de la loma,17.2706,-100.8939,28.83,62,100,2.49,MX,1733770633
522,bebedja,8.6761,16.566,28.38,28,100,1.83,TD,1733770634
523,kovernino,57.1253,43.8142,-2.92,97,100,2.23,RU,1733770635
524,krasnobrodskiy,54.1581,86.4486,-24.34,100,74,0.7,RU,1733770636
525,wongsorejo,-7.9908,114.4009,25.55,89,100,0.65,ID,1733770637
526,happy valley-goose bay,53.3168,-60.3315,-9.83,85,100,5.66,CA,1733770639
527,hangu,39.2489,117.7892,-1.31,38,11,3.48,CN,1733770640
528,fredericton,45.9454,-66.6656,-3.53,72,0,2.57,CA,1733770533
529,el granada,37.5027,-122.4694,16.18,34,20,5.66,US,1733770642
530,sitka,57.0531,-135.33,2.94,87,20,0.0,US,1733770643
531,loralai,30.3705,68.598,5.55,17,25,0.37,PK,1733770644
532,lashio,22.9333,97.75,14.07,99,24,0.27,MM,1733770645
533,kayyerkan,69.3786,87.7439,-12.27,93,100,8.14,RU,1733770646
534,mossel bay,-34.1831,22.146,21.96,80,11,3.68,ZA,1733770648
535,chengdu,30.6667,104.0667,5.94,93,75,2.0,CN,1733770548
536,katsuura,35.1333,140.3,8.33,56,100,5.2,JP,1733770650
537,vuktyl,63.8567,57.3094,-8.31,95,100,3.2,RU,1733770651
538,isangel,-19.55,169.2667,25.67,88,5,3.03,VU,1733770652
539,qingdao,36.0986,120.3719,-3.22,68,0,1.0,CN,1733770473
540,vila velha,-20.3297,-40.2925,30.97,68,0,6.69,BR,1733770654
541,bamyan,34.75,67.25,-12.4,58,100,1.05,AF,1733770655
542,kolondieba,11.0882,-6.8926,27.08,23,100,2.28,ML,1733770657
543,funafuti,-8.5243,179.1942,27.0,89,75,0.0,TV,1733770659
544,petrila,45.45,23.4167,1.46,94,16,2.04,RO,1733770660
545,san ignacio,17.1561,-89.0714,28.08,69,40,3.09,BZ,1733770661
546,tofol,5.3248,163.0078,28.18,79,94,9.21,FM,1733770662
547,franceville,-1.6333,13.5836,26.25,83,40,0.88,GA,1733770663
548,gao,16.6362,1.637,21.6,11,3,4.09,ML,1733770664
549,montfort-sur-meu,48.1333,-1.9667,6.94,87,100,5.14,FR,1733770666
550,cidreira,-30.1811,-50.2056,18.91,81,100,7.11,BR,1733770667
551,kasongo,-4.45,26.6667,21.96,90,88,1.06,CD,1733770668
552,sovetskaya gavan',48.9723,140.2878,-15.59,79,1,3.68,RU,1733770669
553,chadan,51.2833,91.5833,-18.53,97,94,1.56,RU,1733770670
554,naze,28.3667,129.4833,13.51,63,100,3.53,JP,1733770671
555,pointe-noire,-4.7761,11.8635,25.87,89,14,2.14,CG,1733770672
556,kaedi,16.1465,-13.5047,27.51,13,100,3.49,MR,1733770673
557,bryan,30.6744,-96.37,23.23,59,0,4.63,US,1733770675
558,bhinga,27.7167,81.9333,14.38,42,0,3.25,IN,1733770676
559,santana,-0.0583,-51.1817,33.1,58,40,6.69,BR,1733770677
560,cill airne,52.05,-9.5167,2.03,100,0,1.54,IE,1733770678
561,nadvoitsy,63.8667,34.3167,-2.84,82,100,4.69,RU,1733770679
562,mount isa,-20.7333,139.5,25.87,83,83,2.57,AU,1733770681
563,howard springs,-12.497,131.047,26.95,99,100,3.12,AU,1733770682
564,torghay,49.6339,63.4981,-12.4,94,24,0.79,KZ,1733770684
565,al jawf,29.5,38.75,13.34,39,13,2.02,SA,1733770685
566,mahanje,-9.9333,35.3333,20.08,82,3,0.67,TZ,1733770686
567,al bawiti,28.3492,28.8659,14.46,34,100,1.71,EG,1733770687
568,maringa,-23.4253,-51.9386,25.93,83,75,5.66,BR,1733770688
569,puerto princesa,9.7392,118.7353,26.99,89,100,5.14,PH,1733770689
570,mil'kovo,55.6078,37.7956,-0.76,60,100,1.36,RU,1733770691
571,kargopol',61.5071,38.9456,-2.55,88,100,2.48,RU,1733770692
572,teguise,29.0605,-13.564,17.12,59,40,8.75,ES,1733770694
573,conceicao do araguaia,-8.2578,-49.2647,30.42,60,100,1.45,BR,1733770695
574,fiambala,-27.6871,-67.6149,27.66,26,0,6.86,AR,1733770696
575,valdivia,-39.8142,-73.2459,20.05,44,0,3.25,CL,1733770697
576,pudozh,61.8099,36.5345,-0.64,86,100,2.53,RU,1733770698
